City,Country,Latitude,Longitude,Temperature (F),Min Temperature (F),Max Temperature (F),Pressure (hPa),Humidity (%),Cloudiness (%),Wind Speed (mph),Date (UTC)
rikitea,PF,-23.1203,-134.9692,73.98,73.98,73.98,1019,79,91,13.18,1627500010
ushuaia,AR,-54.8,-68.3,42.46,42.46,44.22,1011,87,75,3.44,1627500090
ponta do sol,PT,32.6667,-17.1,74.28,73.13,75.7,1018,76,1,3.67,1627500091
never,RU,53.9833,124.1667,59.14,59.14,59.14,1001,100,74,3.51,1627500091
mar del plata,AR,-38.0023,-57.5575,45.77,44.62,47.08,1019,63,75,3.0,1627500053
boguchany,RU,58.3814,97.4531,57.22,57.22,57.22,1005,96,66,4.05,1627500092
avarua,CK,-21.2078,-159.775,71.65,71.65,71.65,1018,88,75,3.44,1627500092
narsaq,GL,60.9167,-46.05,53.82,53.82,53.82,1022,70,87,6.26,1627500048
flinders,AU,-34.5833,150.8552,53.37,50.2,54.18,1002,54,0,15.01,1627500093
castro,CL,-42.4721,-73.7732,47.68,47.68,47.68,1028,87,90,4.61,1627500093
new norfolk,AU,-42.7826,147.0587,43.61,41.76,44.58,999,61,87,3.62,1627500027
roald,NO,62.5833,6.1333,64.96,62.01,69.12,1002,88,20,3.44,1627500094
busselton,AU,-33.65,115.3333,58.05,58.05,59.09,1000,77,84,25.95,1627500095
sisimiut,GL,66.9395,-53.6735,51.21,51.21,51.21,1018,73,52,10.85,1627500095
san cristobal,EC,-0.9045,-89.6174,78.91,78.91,78.91,1010,73,40,14.97,1627500095
nome,US,64.5011,-165.4064,51.87,51.12,51.87,1002,93,90,19.57,1627499835
butaritari,KI,3.0707,172.7902,82.44,82.44,82.44,1011,71,47,10.36,1627500005
lumeje,AO,-11.55,20.7833,63.19,63.19,63.19,1017,32,34,5.99,1627500097
tura,RU,64.2833,100.25,66.49,66.49,66.49,1006,81,0,4.92,1627500097
nikolskoye,RU,59.7035,30.7861,65.95,64.78,66.79,1006,97,100,3.89,1627500097
mizdah,LY,31.4451,12.9801,83.32,83.32,83.32,1015,24,0,11.25,1627500098
yantikovo,RU,55.8216,47.9104,63.32,63.32,63.32,1014,52,0,2.59,1627500098
georgetown,SH,-7.9333,-14.4167,77.65,77.65,77.65,1015,65,40,18.41,1627500099
nhulunbuy,AU,-12.2333,136.7667,72.21,72.21,72.21,1012,94,19,4.61,1627500099
vaini,TO,-21.2,-175.2,68.16,68.16,68.16,1019,77,40,8.05,1627500099
saldanha,ZA,-33.0117,17.9442,50.05,50.05,50.05,1024,69,37,8.41,1627500101
fairbanks,US,64.8378,-147.7164,57.0,54.82,60.1,1017,94,90,1.01,1627500061
togur,RU,58.3631,82.8265,57.7,57.7,57.7,1008,68,84,6.06,1627500101
clyde river,CA,70.4692,-68.5914,52.03,52.03,52.03,1010,66,75,6.91,1627500023
kavieng,PG,-2.5744,150.7967,81.79,81.79,81.79,1010,76,86,6.73,1627500102
casper,US,42.8666,-106.3131,89.49,88.72,92.5,1025,25,1,5.99,1627499852
kaitangata,NZ,-46.2817,169.8464,41.32,41.32,41.32,1013,95,26,4.47,1627500103
sao geraldo do araguaia,BR,-6.4006,-48.555,99.0,99.0,99.0,1008,20,1,3.58,1627500103
takoradi,GH,4.8845,-1.7554,76.26,76.26,76.26,1013,79,56,5.93,1627500104
tairua,NZ,-37.0167,175.85,53.1,53.1,53.1,1018,91,36,2.59,1627500104
arraial do cabo,BR,-22.9661,-42.0278,64.26,64.26,71.56,1014,94,90,9.22,1627499831
kjollefjord,NO,70.9457,27.3465,48.25,46.18,48.25,1012,90,100,8.48,1627500104
mahebourg,MU,-20.4081,57.7,70.09,69.26,70.09,1023,83,75,21.85,1627500105
hofn,IS,64.2539,-15.2082,50.02,50.02,50.02,1011,100,90,5.75,1627500023
mount gambier,AU,-37.8333,140.7667,48.72,48.72,48.72,1011,80,6,10.49,1627500106
jamestown,SH,-15.9387,-5.7168,64.67,64.67,64.67,1020,68,11,24.11,1627500106
cabinda,AO,-5.55,12.2,73.49,73.49,73.49,1014,86,10,9.44,1627500107
jedovnice,CZ,49.3445,16.756,66.16,63.61,68.72,1012,74,75,8.88,1627500108
hobart,AU,-42.8794,147.3294,44.42,42.12,45.27,995,74,71,4.0,1627500109
victoria,SC,-4.6167,55.45,78.06,78.06,78.06,1013,78,40,17.27,1627500109
srednekolymsk,RU,67.45,153.6833,36.14,36.14,36.14,1017,99,100,10.16,1627500109
marawi,SD,18.4833,31.8167,100.31,100.31,100.31,1004,13,100,14.58,1627500110
lagoa,PT,39.05,-27.9833,72.43,72.43,72.43,1027,80,100,8.39,1627500029
maceio,BR,-9.6658,-35.7353,81.84,81.84,81.84,1014,61,0,6.91,1627499957
champerico,GT,14.3,-91.9167,89.87,83.73,90.14,1011,71,96,6.78,1627500111
faanui,PF,-16.4833,-151.75,76.91,76.91,76.91,1017,75,77,3.31,1627500112
saint george,BM,32.3817,-64.6781,83.88,81.75,83.98,1017,77,75,21.85,1627500112
cherskiy,RU,68.75,161.3,36.19,36.19,36.19,1012,92,100,13.8,1627500112
kurilsk,RU,45.2333,147.8833,66.34,66.34,66.34,1008,96,100,7.11,1627500113
zaraza,VE,9.3503,-65.3245,89.33,89.33,89.33,1010,52,85,4.63,1627500114
saint-philippe,RE,-21.3585,55.7679,70.25,69.22,71.19,1025,88,100,18.61,1627500114
port elizabeth,ZA,-33.918,25.5701,55.69,55.09,55.69,1020,76,75,6.91,1627500029
vostok,RU,46.4856,135.8833,69.69,69.69,69.69,1003,89,76,3.51,1627500115
mukhen,RU,48.1,136.1,75.56,75.56,75.56,1001,69,89,3.74,1627500116
dikson,RU,73.5069,80.5464,38.21,38.21,38.21,1006,94,100,12.06,1627499937
iqaluit,CA,63.7506,-68.5145,49.69,49.69,51.53,1011,61,75,5.01,1627500117
punta arenas,CL,-53.15,-70.9167,48.22,44.62,48.31,1014,76,0,17.27,1627500118
cape town,ZA,-33.9258,18.4232,52.54,51.12,53.28,1022,79,20,9.22,1627499957
khatanga,RU,71.9667,102.5,72.09,72.09,72.09,1004,61,17,8.95,1627500025
chokurdakh,RU,70.6333,147.9167,37.9,37.9,37.9,1022,80,100,10.31,1627500119
tiksi,RU,71.6872,128.8694,37.63,37.63,37.63,1021,93,100,6.08,1627500087
hualmay,PE,-11.0964,-77.6139,69.24,69.24,69.24,1011,70,73,12.64,1627500120
bubaque,GW,11.2833,-15.8333,78.01,78.01,78.01,1012,88,100,15.86,1627500121
san patricio,MX,19.2167,-104.7,87.91,87.91,87.91,1010,74,20,11.5,1627500122
stepnogorsk,KZ,52.3544,71.8869,62.28,62.28,62.28,1008,51,70,7.7,1627500123
east london,ZA,-33.0153,27.9116,64.89,64.89,64.89,1019,78,100,6.22,1627500102
black diamond,CA,50.7001,-114.2353,72.46,63.37,81.93,1017,29,5,8.97,1627500123
ngunguru,NZ,-35.6167,174.5,45.16,45.16,45.16,1019,88,20,5.23,1627500124
hithadhoo,MV,-0.6,73.0833,81.01,81.01,81.01,1012,76,100,6.76,1627500082
poum,NC,-20.2333,164.0167,72.19,72.19,72.19,1016,64,95,14.97,1627500126
waipawa,NZ,-41.4122,175.5153,44.04,43.43,46.92,1017,88,3,4.09,1627499933
atkarsk,RU,51.8718,45.0078,70.32,70.32,70.32,1014,54,72,2.89,1627499886
hami,CN,42.8,93.45,90.25,90.25,90.25,995,18,4,12.33,1627500127
port alfred,ZA,-33.5906,26.891,60.89,60.89,60.89,1020,78,100,8.03,1627500127
barrow,US,71.2906,-156.7887,41.02,41.02,41.02,1005,93,90,17.27,1627500128
baykit,RU,61.67,96.37,56.7,56.7,56.7,1008,89,95,4.12,1627500128
kloulklubed,PW,7.0419,134.2556,77.5,77.5,77.5,1009,75,96,4.5,1627500129
la palma,PA,8.4028,-78.1453,87.31,87.31,87.31,1008,68,48,4.16,1627500129
sitka,US,57.0531,-135.33,62.49,62.49,62.49,1023,72,20,3.44,1627500130
san quintin,MX,30.4833,-115.95,76.86,76.86,76.86,1015,67,1,14.58,1627500130
sao sebastiao,BR,-23.76,-45.4097,55.35,55.35,55.35,1018,93,100,7.81,1627500131
hambantota,LK,6.1241,81.1185,80.13,80.13,80.13,1010,79,99,17.09,1627500133
kavaratti,IN,10.5669,72.642,82.27,82.27,82.27,1011,78,100,16.69,1627500133
ombessa,CM,4.603,11.2565,69.26,69.26,69.26,1013,96,100,5.37,1627500134
atuona,PF,-9.8,-139.0333,77.59,77.59,77.59,1016,72,17,20.24,1627500134
kununurra,AU,-15.7667,128.7333,64.38,64.38,64.38,1012,94,86,0.0,1627499994
albany,AU,-35.0169,117.8917,55.83,55.83,55.83,995,88,40,14.97,1627500135
camacha,PT,33.0833,-16.3333,69.22,69.22,70.56,1018,73,20,14.97,1627500136
omaha,US,41.2586,-95.9378,95.67,93.15,97.16,1016,55,20,11.5,1627500041
hasaki,JP,35.7333,140.8333,76.01,75.49,77.29,1003,88,100,16.55,1627500137
banda aceh,ID,5.5577,95.3222,80.2,80.2,80.2,1009,82,20,14.67,1627500138
puerto ayora,EC,-0.7393,-90.3518,78.76,78.76,78.76,1012,78,67,9.4,1627500035
suining,CN,30.508,105.5733,79.02,79.02,79.02,999,80,40,2.84,1627500139
nouadhibou,MR,20.931,-17.0347,71.58,71.58,71.58,1010,78,0,20.71,1627500139
jibuti,DJ,11.5,42.5,85.42,85.42,85.42,1005,48,100,7.16,1627500140
rawah,IQ,34.4816,41.9093,93.38,93.38,93.38,997,19,0,14.09,1627500140
general roca,AR,-39.0333,-67.5833,57.6,57.6,57.6,1027,26,0,13.02,1627500141
sault sainte marie,CA,46.5168,-84.3333,78.39,76.82,79.36,1016,43,1,4.61,1627500141
bafra,TR,41.5678,35.9069,74.98,74.98,74.98,1016,71,0,8.37,1627500146
bethel,US,41.3712,-73.414,78.13,74.53,81.41,1015,54,20,4.0,1627499906
kobryn,BY,52.2138,24.3564,70.41,70.41,70.41,1010,77,100,6.06,1627500147
upernavik,GL,72.7868,-56.1549,46.8,46.8,46.8,1019,80,95,9.26,1627500147
esso,RU,55.9333,158.7,57.15,57.15,57.15,1007,90,83,1.9,1627500148
komsomolskiy,RU,43.9783,46.6985,65.75,65.75,65.75,1017,67,6,8.37,1627500148
samandag,TR,36.0842,35.9771,86.52,86.52,86.52,1005,62,0,5.1,1627500148
port blair,IN,11.6667,92.75,81.9,81.9,81.9,1007,86,100,18.77,1627500101
ust-kuyga,RU,70.0167,135.6,43.23,43.23,43.23,1022,80,99,5.21,1627500149
georgiyevka,KZ,43.0369,74.7114,77.04,77.04,77.04,1003,25,0,11.18,1627500150
bluff,NZ,-46.6,168.3333,42.8,42.8,42.8,1011,87,22,9.26,1627500009
magomeni,TZ,-6.8,39.25,72.84,72.84,72.84,1017,81,0,8.21,1627500152
thompson,CA,55.7435,-97.8558,62.76,62.76,62.76,1016,59,75,13.8,1627500152
ponta do sol,CV,17.1994,-25.0919,78.58,78.58,78.58,1013,75,47,11.14,1627500153
miraflores,CO,1.3367,-71.9511,76.08,76.08,76.08,1013,92,100,2.42,1627500153
tasiilaq,GL,65.6145,-37.6368,51.96,51.96,51.96,1022,68,73,2.3,1627500154
canyon,US,34.9803,-101.9188,93.0,89.11,97.52,1015,35,24,12.59,1627500154
baghdad,IQ,33.3406,44.4009,96.71,96.71,96.71,996,20,0,6.91,1627499901
bredasdorp,ZA,-34.5322,20.0403,51.12,51.12,55.27,1020,62,0,9.22,1627500155
nelson bay,AU,-32.7167,152.15,54.84,49.77,56.08,1011,80,0,14.97,1627500155
cartersville,US,34.1651,-84.7999,92.75,88.32,97.83,1014,54,1,3.0,1627499865
lompoc,US,34.6391,-120.4579,71.44,63.32,88.12,1017,76,75,9.22,1627500157
cabo san lucas,MX,22.8909,-109.9124,92.98,81.95,96.8,1014,52,1,9.22,1627500157
tuatapere,NZ,-46.1333,167.6833,42.82,42.82,42.82,1010,89,81,6.53,1627500045
chuy,UY,-33.6971,-53.4616,45.75,45.75,45.75,1019,70,17,18.95,1627500159
hermanus,ZA,-34.4187,19.2345,55.8,51.91,55.8,1022,71,6,16.26,1627500159
acapulco,MX,16.8634,-99.8901,85.82,85.82,85.82,1011,74,75,5.75,1627500160
havoysund,NO,70.9963,24.6622,48.43,47.28,48.43,1012,90,95,8.1,1627500161
panjab,AF,34.388,67.0233,62.4,62.4,62.4,1006,39,0,6.2,1627500161
mastic beach,US,40.7668,-72.8521,78.93,73.98,84.16,1016,60,75,8.01,1627500162
dingzhou,CN,38.5131,114.9956,77.11,77.11,77.11,1001,94,100,5.68,1627500162
westport,NZ,-41.7526,171.6037,46.04,46.04,46.04,1016,89,50,5.23,1627500163
lorengau,PG,-2.0226,147.2712,81.86,81.86,81.86,1010,78,100,5.66,1627499910
boda,CF,4.3189,17.4695,69.6,69.6,69.6,1013,91,91,2.19,1627500163
lavrentiya,RU,65.5833,-171.0,43.79,43.79,43.79,994,99,100,7.67,1627500164
brae,GB,60.3964,-1.353,56.91,56.91,56.91,1000,98,100,12.15,1627500164
kiunga,PG,-6.1219,141.2906,73.42,73.42,73.42,1010,100,92,1.66,1627500165
tuktoyaktuk,CA,69.4541,-133.0374,50.0,50.0,50.0,1009,87,90,10.36,1627500062
beloha,MG,-25.1667,45.05,64.96,64.96,64.96,1025,84,3,12.24,1627500115
chaohu,CN,31.6,117.8667,76.03,75.31,76.03,994,94,70,8.88,1627500168
staryy oskol,RU,51.2967,37.8417,70.54,70.54,70.54,1013,60,100,4.68,1627500170
ventspils,LV,57.3894,21.5606,69.73,69.73,69.73,1008,88,0,5.75,1627500170
marsh harbour,BS,26.5412,-77.0636,84.92,84.92,84.92,1017,69,10,3.4,1627500043
ukrayinka,UA,47.9167,35.35,76.86,76.86,77.32,1015,53,0,7.0,1627500171
sorland,NO,67.667,12.6934,53.67,53.67,53.67,1007,88,87,21.92,1627500172
severo-kurilsk,RU,50.6789,156.125,56.08,56.08,56.08,1007,97,100,5.84,1627500172
healdsburg,US,38.6105,-122.8692,90.18,73.08,103.1,1015,38,1,1.99,1627500172
qaanaaq,GL,77.484,-69.3632,43.65,43.65,43.65,1014,99,100,7.54,1627500174
hope,CA,49.383,-121.4414,83.73,80.35,88.47,1018,36,1,11.5,1627500174
bambous virieux,MU,-20.3428,57.7575,70.05,69.22,70.05,1023,83,75,21.85,1627500175
batagay,RU,67.6333,134.6333,40.95,40.95,40.95,1019,81,30,3.38,1627500175
sao filipe,CV,14.8961,-24.4956,76.24,76.24,76.24,1012,76,6,11.3,1627500176
gornopravdinsk,RU,60.05,69.9,50.13,50.13,50.13,1005,90,100,2.98,1627500177
colac,AU,-38.3333,143.5833,43.95,43.09,46.62,1010,93,26,11.65,1627500177
provideniya,RU,64.3833,-173.3,46.51,46.51,46.51,993,100,90,13.42,1627500178
kapaa,US,22.0752,-159.319,78.28,77.11,82.38,1019,76,75,10.36,1627500178
vanimo,PG,-2.6741,141.3028,77.36,77.36,77.36,1010,91,35,5.73,1627500127
geraldton,AU,-28.7667,114.6,59.41,59.41,63.12,1008,88,40,16.11,1627500180
college,US,64.8569,-147.8028,56.95,54.81,59.32,1017,94,90,4.61,1627500181
canutama,BR,-6.5339,-64.3831,96.73,96.73,96.73,1010,28,99,4.61,1627500181
nago,JP,26.5881,127.9761,79.47,79.23,80.76,999,91,100,3.06,1627500182
seoul,KR,37.5683,126.9778,78.12,73.81,78.37,1002,89,100,5.75,1627500072
bundaberg,AU,-24.85,152.35,61.09,61.09,61.09,1012,100,11,10.36,1627500183
inverell,AU,-29.7833,151.1167,48.9,48.16,51.67,1013,93,66,2.51,1627500183
buta,CD,2.7858,24.73,70.54,70.54,70.54,1013,94,46,1.83,1627500184
pangnirtung,CA,66.1451,-65.7125,53.6,53.6,53.6,1011,66,20,16.11,1627500037
cayenne,GF,4.9333,-52.3333,83.08,83.08,84.24,1011,80,20,4.0,1627500008
esperance,AU,-33.8667,121.9,55.63,55.63,55.63,1003,70,10,23.47,1627500187
pangoa,PE,-12.1167,-73.0,75.69,75.69,75.69,1014,82,62,2.59,1627500187
monrovia,LR,6.3005,-10.7969,78.57,78.57,78.57,1014,71,100,10.49,1627499970
constitucion,MX,23.9912,-104.6749,76.14,74.86,76.14,1027,43,0,8.99,1627500188
tautira,PF,-17.7333,-149.15,80.62,80.01,80.62,1017,76,23,6.4,1627500188
alamosa,US,37.4695,-105.87,80.58,80.35,81.91,1028,32,1,0.0,1627500189
hilo,US,19.7297,-155.09,76.73,74.93,80.8,1018,82,90,3.44,1627499934
neiafu,TO,-18.65,-173.9833,68.68,68.68,68.68,1017,94,75,0.0,1627500190
portland,AU,-38.3333,141.6,51.93,51.93,51.93,1009,72,12,17.98,1627500190
belmonte,BR,-15.8631,-38.8828,80.6,80.6,81.1,1013,74,1,11.72,1627500192
atar,MR,20.5169,-13.0499,105.13,105.13,105.13,1005,13,93,12.06,1627500055
mao,TD,14.1212,15.3103,79.72,79.72,79.72,1012,69,100,6.6,1627500194
ribeira grande,PT,38.5167,-28.7,77.4,77.4,77.4,1027,65,20,12.66,1627500194
teahupoo,PF,-17.8333,-149.2667,75.16,74.53,75.16,1017,75,24,5.06,1627500008
lebu,CL,-37.6167,-73.65,55.56,55.56,55.56,1020,64,0,17.29,1627500047
shimoda,JP,34.6667,138.95,75.11,75.11,77.11,1003,89,65,11.27,1627500196
vila velha,BR,-20.3297,-40.2925,77.97,76.95,78.96,1011,68,0,12.66,1627500198
yangambi,CD,0.8102,24.4336,74.5,74.5,74.5,1012,72,55,3.11,1627500198
hamilton,BM,32.2915,-64.778,82.0,82.0,84.24,1016,86,75,13.0,1627500200
begang,PH,6.6909,122.0168,77.67,77.67,77.67,1008,90,91,2.98,1627500201
richards bay,ZA,-28.783,32.0377,59.99,59.99,59.99,1021,55,0,3.94,1627500201
broome,AU,-17.9667,122.2333,62.55,62.55,62.55,1014,94,100,0.0,1627500202
makakilo city,US,21.3469,-158.0858,79.27,78.28,80.92,1019,69,75,8.05,1627500202
longyearbyen,SJ,78.2186,15.6401,42.64,42.64,42.64,1014,93,90,11.5,1627500203
kang,BW,-23.6752,22.7876,53.31,53.31,53.31,1023,37,0,3.69,1627500205
leningradskiy,RU,69.3833,178.4167,33.26,33.26,33.26,997,99,100,17.31,1627500205
meadow lake,CA,54.1335,-108.4347,75.18,75.18,75.18,1022,43,20,2.3,1627500206
sechura,PE,-5.5569,-80.8222,79.93,79.93,79.93,1009,54,1,13.49,1627500206
wattegama,LK,6.7989,81.4808,76.98,76.98,76.98,1009,77,98,4.72,1627500017
kulunda,RU,52.566,78.9385,58.42,58.42,58.42,1009,51,0,8.21,1627500207
atikokan,CA,48.7555,-91.6216,86.7,86.7,86.7,1008,43,100,9.55,1627500208
egvekinot,RU,66.3167,-179.1667,36.72,36.72,36.72,993,92,100,4.81,1627500209
bathsheba,BB,13.2167,-59.5167,75.81,75.81,75.81,1014,94,75,9.22,1627500210
pevek,RU,69.7008,170.3133,32.77,32.77,32.77,1004,99,100,24.4,1627500036
montevideo,UY,-34.8335,-56.1674,46.29,40.71,48.81,1022,73,20,15.01,1627499582
hanna,CA,51.6334,-111.9018,79.93,78.44,81.91,1018,24,4,5.01,1627500211
paita,PE,-5.0892,-81.1144,79.36,79.36,79.36,1009,70,7,15.46,1627500211
korla,CN,41.7597,86.1469,89.19,89.19,89.19,995,23,36,3.67,1627500077
carnarvon,AU,-24.8667,113.6333,66.27,66.27,66.27,1013,56,100,14.97,1627500026
san policarpo,PH,12.1791,125.5072,80.44,80.44,80.44,1007,83,100,7.14,1627499939
manono,CD,-7.3,27.4167,77.65,77.65,77.65,1012,34,13,4.63,1627500214
kaeo,NZ,-35.1,173.7833,45.32,45.32,45.32,1020,95,28,2.19,1627500214
darovskoy,RU,58.77,47.9564,53.56,53.56,53.56,1012,69,11,3.85,1627500215
itabirito,BR,-20.2533,-43.8014,82.53,81.57,83.17,1011,28,5,11.36,1627500217
ullapool,GB,57.8987,-5.1604,59.32,58.95,60.76,999,96,100,3.89,1627500217
port hedland,AU,-20.3167,118.5667,62.65,62.65,62.65,1015,82,4,10.36,1627500217
katsuura,JP,35.1333,140.3,80.24,80.11,80.71,1003,85,100,14.52,1627499993
hovd,MN,48.0056,91.6419,63.39,63.39,63.39,1004,38,0,3.04,1627500089
norman wells,CA,65.282,-126.8329,62.64,62.64,62.64,1012,72,90,9.22,1627500218
klaksvik,FO,62.2266,-6.589,58.12,58.12,58.12,1004,93,97,9.28,1627500219
salalah,OM,17.0151,54.0924,78.89,78.89,78.89,1004,89,90,9.22,1627500220
fort nelson,CA,58.8053,-122.7002,71.19,71.19,71.19,1017,40,20,6.91,1627499968
paamiut,GL,61.994,-49.6678,44.28,44.28,44.28,1021,87,15,7.94,1627500167
bilma,NE,18.6853,12.9164,98.24,98.24,98.24,1008,24,1,3.42,1627500222
matara,LK,5.9485,80.5353,78.71,78.71,78.71,1011,88,84,10.78,1627500223
shajapur,IN,23.4333,76.2667,75.51,75.51,75.51,1002,87,100,15.93,1627500224
vestmannaeyjar,IS,63.4427,-20.2734,56.39,56.39,56.39,1010,82,0,8.05,1627500225
tanout,NE,14.9709,8.8879,83.86,83.86,83.86,1011,50,56,11.36,1627500225
coffs harbour,AU,-30.3,153.1333,55.36,55.36,56.14,1010,82,100,6.91,1627500226
los llanos de aridane,ES,28.6585,-17.9182,68.13,68.13,69.55,1013,86,75,16.11,1627500227
ternate,ID,0.8,127.4,81.0,81.0,81.0,1009,79,99,3.87,1627500228
cap malheureux,MU,-19.9842,57.6142,69.48,69.48,70.29,1022,79,100,13.0,1627500228
port said,EG,31.2565,32.2841,84.18,84.18,84.18,1007,65,0,9.22,1627500229
rawson,AR,-43.3002,-65.1023,55.13,55.13,55.13,1022,35,18,12.93,1627500052
dajal,PK,29.5577,70.3762,96.37,96.37,96.37,993,45,95,11.39,1627500230
samana,DO,19.2056,-69.3369,88.02,85.96,88.02,1015,79,40,9.22,1627500230
igarka,RU,67.4667,86.5833,52.77,52.77,52.77,1009,85,100,5.84,1627500231
san carlos de bariloche,AR,-41.1456,-71.3082,53.44,49.75,53.44,1027,38,0,0.0,1627500231
singaraja,ID,-8.112,115.0882,77.2,77.2,77.2,1012,81,98,5.01,1627500232
virginia beach,US,36.8529,-75.978,79.47,73.42,82.0,1015,78,75,5.75,1627500048
alcudia,ES,39.8532,3.1214,80.85,74.17,82.38,1014,71,0,7.87,1627500234
torbay,CA,47.6666,-52.7314,75.18,72.16,75.97,1013,85,75,13.8,1627500060
wanning,CN,18.8003,110.3967,80.69,80.69,80.69,998,89,100,6.33,1627500235
santa rosalia,MX,27.3167,-112.2833,89.98,89.98,89.98,1013,43,0,7.56,1627500235
yellowknife,CA,62.456,-114.3525,65.84,64.56,69.3,1014,63,20,3.0,1627500008
bellary,IN,15.15,76.9333,75.22,75.22,75.22,1009,76,100,17.69,1627500237
ambulu,ID,-8.345,113.6058,72.36,72.36,72.36,1012,90,11,3.62,1627500238
adrar,DZ,25.75,-1.0,104.16,104.16,104.16,1005,14,1,4.65,1627500238
linfen,CN,36.0889,111.5189,78.12,78.12,78.12,1000,66,66,2.66,1627500240
kirovskiy,RU,45.0917,133.5136,71.17,71.17,71.17,1002,88,14,3.56,1627500242
kawhia,NZ,-38.0651,174.8183,49.24,48.74,51.15,1018,91,56,1.01,1627500243
campo verde,BR,-20.4167,-54.0667,56.41,56.41,56.41,1024,30,100,10.67,1627500243
talnakh,RU,69.4865,88.3972,55.54,55.54,55.54,1009,84,100,3.24,1627500244
yulara,AU,-25.2406,130.9889,51.64,51.64,51.64,1014,66,0,8.05,1627500245
general pico,AR,-35.6566,-63.7568,50.72,50.72,50.72,1030,34,2,8.7,1627500247
paris,US,33.6609,-95.5555,93.99,91.29,95.79,1018,57,1,5.75,1627500249
vanavara,RU,60.34,102.2797,66.49,66.49,66.49,1003,63,100,3.36,1627500044
tailai,CN,46.3833,123.4,72.54,72.54,72.54,1002,73,100,3.53,1627500250
kailua,US,21.4022,-157.7394,80.47,79.74,82.38,1018,73,90,9.22,1627500250
meiganga,CM,6.5167,14.3,64.96,64.96,64.96,1015,96,100,3.02,1627500251
old saybrook,US,41.2918,-72.3762,77.68,72.99,81.95,1015,63,90,1.99,1627500251
lishui,CN,28.4604,119.9103,77.09,77.09,77.09,998,97,22,2.21,1627500253
kinkala,CG,-4.3614,14.7644,75.51,75.51,75.51,1012,35,89,4.54,1627500254
mackenzie,CA,55.2999,-123.1698,66.42,66.42,66.42,1022,45,75,4.61,1627500256
north bend,US,43.4065,-124.2243,64.92,61.86,87.94,1019,80,1,6.91,1627500256
praia,CV,14.9215,-23.5087,81.14,81.14,81.14,1012,61,75,14.97,1627500258
mogwase,ZA,-25.185,27.2665,53.65,53.65,53.65,1024,37,0,3.94,1627500258
coahuayana,MX,18.7333,-103.6833,89.08,89.08,89.08,1012,57,68,6.15,1627500259
taihe,CN,30.8712,105.3845,78.21,78.21,78.21,999,77,11,3.2,1627500259
gombong,ID,-7.6072,109.5142,73.45,73.45,73.45,1012,83,77,3.38,1627500260
kenai,US,60.5544,-151.2583,57.72,56.14,64.02,1021,73,90,13.8,1627500209
baracoa,CU,20.3467,-74.4958,85.96,85.96,85.96,1015,67,11,10.11,1627500261
guarapari,BR,-20.6667,-40.4975,78.91,76.89,78.91,1013,75,35,8.72,1627500262
tupa,BR,-21.9347,-50.5136,53.78,53.78,53.78,1021,25,100,12.46,1627500263
bairiki,KI,1.3292,172.9752,80.6,80.6,80.6,1011,78,20,5.75,1627500263
vila franca do campo,PT,37.7167,-25.4333,72.01,72.01,72.01,1025,81,40,9.19,1627500264
taclobo,PH,12.3074,122.586,83.53,83.53,83.53,1006,74,100,18.21,1627500264
santa cruz,CR,10.2605,-85.5851,88.16,88.16,88.16,1009,74,98,3.33,1627500265
chapais,CA,49.7834,-74.8492,67.78,67.78,67.78,1014,34,96,9.55,1627500265
ambon,ID,-3.6954,128.1814,79.65,79.65,79.65,1010,84,61,7.78,1627500266
dahuk,IQ,36.8695,42.994,90.68,90.68,90.68,997,12,0,7.25,1627499967
zhangye,CN,38.9342,100.4517,74.59,74.59,74.59,1001,22,0,7.09,1627500267
pisco,PE,-13.7,-76.2167,68.05,67.01,68.05,1013,68,0,8.05,1627500058
kandi,BJ,11.1342,2.9386,73.49,73.49,73.49,1012,88,72,3.69,1627500269
puerto suarez,BO,-18.95,-57.8,66.56,64.96,66.56,1023,37,75,10.36,1627500270
balatonfured,HU,46.9619,17.8719,81.14,73.26,81.36,1011,50,0,8.01,1627500270
maniitsoq,GL,65.4167,-52.9,45.73,45.73,45.73,1021,87,61,15.97,1627500271
arlit,NE,18.7369,7.3853,95.43,95.43,95.43,1009,31,78,16.67,1627500272
zhezkazgan,KZ,47.8043,67.7144,75.2,75.2,75.2,1008,21,100,13.49,1627500274
guerrero negro,MX,27.9769,-114.0611,81.55,81.55,81.55,1014,53,0,14.23,1627500274
kodiak,US,57.79,-152.4072,56.71,56.71,56.71,1023,67,90,5.75,1627500276
bonfim,BR,3.0833,-59.95,86.72,86.72,86.72,1010,61,35,8.05,1627500276
monze,ZM,-16.2833,27.4833,54.73,54.73,54.73,1022,54,0,5.21,1627500277
lincoln,NZ,-43.65,172.4833,37.47,34.09,39.09,1015,89,13,1.14,1627500277
montague,CA,46.1668,-62.6487,68.23,65.95,71.73,1012,64,54,10.54,1627500278
sakakah,SA,29.9697,40.2064,94.57,94.57,94.57,1002,15,0,11.95,1627500222
najran,SA,17.4924,44.1277,90.25,90.25,90.25,1003,30,100,4.34,1627500279
port lincoln,AU,-34.7333,135.8667,49.14,49.14,49.14,1014,77,5,8.84,1627500281
kalmunai,LK,7.4167,81.8167,81.23,81.23,81.23,1008,72,86,4.5,1627500282
jacareacanga,BR,-6.2222,-57.7528,97.11,97.11,97.11,1011,34,0,6.91,1627500284
una,IN,20.8167,71.0333,80.67,80.67,80.67,1002,85,100,21.94,1627500285
fallon,US,39.4735,-118.7774,88.43,87.67,89.46,1023,16,75,3.44,1627500285
port keats,AU,-14.25,129.55,71.35,71.35,71.35,1012,89,97,2.48,1627500286
te anau,NZ,-45.4167,167.7167,40.24,40.24,40.24,1012,91,88,1.7,1627500287
altukhovo,RU,52.67,34.36,68.27,68.27,68.27,1012,93,56,5.41,1627500289
halifax,CA,44.6453,-63.5724,70.41,66.0,74.41,1011,73,75,4.0,1627500290
ust-kan,RU,50.9276,84.761,44.19,44.19,44.19,1012,96,5,2.01,1627500290
ures,MX,29.4333,-110.4,97.29,94.86,100.13,1013,33,5,4.92,1627500291
kargasok,RU,59.0556,80.8572,56.26,56.26,56.26,1006,82,60,7.83,1627500294
paka,MY,4.6374,103.4368,73.33,73.33,73.33,1009,83,100,0.0,1627500294
gold coast,AU,-28.0,153.4333,60.91,58.15,63.0,1008,86,75,11.14,1627500295
dourbali,TD,11.8091,15.8632,76.39,76.39,76.39,1012,83,95,6.49,1627500296
luderitz,NA,-26.6481,15.1594,56.75,56.75,56.75,1022,79,0,14.94,1627500163
isla mujeres,MX,21.2311,-86.731,87.17,87.17,87.85,1015,67,23,10.67,1627500297
newcastle,ZA,-27.758,29.9318,48.99,48.99,48.99,1023,27,0,6.22,1627500297
harnosand,SE,62.6323,17.9379,72.25,69.01,75.22,1004,81,100,4.43,1627500298
alekseyevka,RU,50.6309,38.6903,74.59,74.59,74.59,1013,46,80,7.96,1627500299
sorong,ID,-0.8833,131.25,80.17,80.17,80.17,1009,82,51,1.83,1627500300
ereymentau,KZ,51.6199,73.1033,60.67,60.67,60.67,1008,48,90,7.38,1627500300
coquimbo,CL,-29.9533,-71.3436,55.13,55.13,55.13,1017,76,20,10.36,1627500302
garbolovo,RU,60.3413,30.4955,65.23,64.08,66.09,1006,98,100,3.8,1627500302
andros town,BS,24.7,-77.7667,87.76,87.76,87.76,1016,64,100,12.17,1627500303
kirakira,SB,-10.4544,161.9205,77.45,77.45,77.45,1012,87,23,7.67,1627500303
cavalcante,BR,-13.7975,-47.4583,88.11,88.11,88.11,1012,16,0,6.31,1627500304
milnathort,GB,56.2269,-3.4193,59.61,57.33,61.61,998,74,80,7.81,1627500304
inirida,CO,3.8653,-67.9239,80.69,80.69,80.69,1012,72,85,2.66,1627500305
aitape,PG,-3.1374,142.3475,78.21,78.21,78.21,1010,87,43,4.72,1627500306
isangel,VU,-19.55,169.2667,69.39,69.39,69.39,1016,67,6,10.58,1627500306
hay river,CA,60.8156,-115.7999,73.38,73.36,73.38,1013,49,75,6.91,1627500168
rocha,UY,-34.4833,-54.3333,44.71,44.71,44.71,1020,71,30,21.03,1627500087
marquette,US,46.5333,-87.6335,79.77,78.35,82.33,1016,60,100,1.01,1627500307
black forest,US,39.0131,-104.7008,85.62,80.26,91.24,1021,29,1,1.01,1627500308
aswan,EG,24.0934,32.907,96.1,96.1,96.1,1006,14,0,9.22,1627500309
muisne,EC,0.6,-80.0333,86.11,86.11,86.11,1009,83,78,10.83,1627500310
kozhva,RU,65.1073,57.0459,44.06,44.06,44.06,1005,97,100,3.51,1627500194
salihli,TR,38.4826,28.1477,85.66,85.66,86.11,1011,25,0,2.62,1627500313
ostrovnoy,RU,68.0531,39.5131,45.64,45.64,45.64,1010,82,100,6.17,1627500313
sinjai,ID,-5.1241,120.253,74.77,74.77,74.77,1011,89,99,3.24,1627500314
sabha,LY,27.0377,14.4283,91.24,91.24,91.24,1011,15,0,11.43,1627500314
akyab,MM,20.15,92.9,81.25,81.25,81.25,1001,88,100,16.67,1627500315
husavik,IS,66.0449,-17.3389,48.11,48.11,48.11,1016,97,100,10.16,1627500316
ketchikan,US,55.3422,-131.6461,63.07,63.07,63.07,1022,72,75,9.22,1627500317
prince rupert,CA,54.3161,-130.3201,59.49,58.69,64.09,1022,88,100,0.0,1627500274
fortuna,US,40.5982,-124.1573,66.15,60.33,91.42,1018,78,20,9.22,1627500133
ilulissat,GL,69.2167,-51.1,53.62,53.62,53.62,1018,50,40,3.44,1627500318
hobyo,SO,5.3505,48.5268,77.61,77.61,77.61,1013,78,86,22.12,1627500133
tahta,EG,26.7693,31.5021,93.52,89.71,93.52,1007,17,4,10.2,1627500320
port hardy,CA,50.6996,-127.4199,64.58,57.2,64.58,1022,68,20,5.75,1627500321
qasigiannguit,GL,68.8193,-51.1922,53.85,53.85,53.85,1019,77,100,5.61,1627500322
namibe,AO,-15.1961,12.1522,64.53,64.53,64.53,1016,90,13,7.09,1627500323
soyo,AO,-6.1349,12.3689,73.17,73.17,73.17,1014,87,7,10.51,1627500324
stromness,GB,58.965,-3.296,55.36,55.36,55.65,1000,97,100,16.02,1627500324
kualakapuas,ID,-3.0091,114.3876,75.36,75.36,75.36,1010,93,7,1.88,1627500324
tabanan,ID,-8.5413,115.1252,77.4,77.4,77.4,1012,88,94,4.5,1627500327
palmer,US,42.1584,-72.3287,76.06,71.17,79.99,1015,52,75,1.99,1627500328
valdemarpils,LV,57.3707,22.5919,69.22,69.22,69.22,1008,73,100,6.08,1627500328
tucupita,VE,9.0622,-62.051,82.8,82.8,82.8,1011,84,74,4.59,1627500329
domsod,HU,47.0901,19.0111,84.06,80.06,87.96,1010,30,0,9.15,1627500331
tsevie,TG,6.4261,1.2133,76.08,76.08,76.08,1013,65,23,9.71,1627500333
kadoma,ZW,-18.3333,29.9153,56.48,56.48,56.48,1022,46,0,2.28,1627500334
ormara,PK,25.2088,64.6357,82.15,82.15,82.15,997,87,100,12.3,1627500073
phan thiet,VN,10.9333,108.1,78.28,78.28,78.28,1006,87,99,10.87,1627500336
padang,ID,-0.9492,100.3543,76.69,76.69,76.69,1012,88,79,3.76,1627500210
lonar,IN,19.9833,76.5333,73.62,73.62,73.62,1005,81,100,13.6,1627500337
ramhormoz,IR,31.28,49.6035,103.05,103.05,103.05,995,7,97,9.42,1627500338
touros,BR,-5.1989,-35.4608,83.3,83.3,83.3,1012,69,6,17.11,1627500339
weligama,LK,5.9667,80.4167,78.85,78.85,78.85,1011,88,82,10.89,1627500339
northam,AU,-31.6667,116.6667,55.47,55.45,57.22,1005,92,99,16.24,1627500096
atbasar,KZ,51.8,68.3333,59.85,59.85,59.85,1009,81,100,12.3,1627500099
paveh,IR,35.0434,46.3565,76.15,76.15,76.15,1003,21,0,4.29,1627500343
altay,CN,47.8667,88.1167,57.33,57.33,57.33,1007,41,14,4.21,1627500344
slave lake,CA,55.2834,-114.769,67.98,67.98,67.98,1020,60,1,5.75,1627500345
victoria point,AU,-27.5833,153.3,59.95,56.52,62.91,1010,93,95,1.01,1627500345
bartica,GY,6.4,-58.6167,80.92,80.92,80.92,1011,72,30,3.65,1627500346
fare,PF,-16.7,-151.0167,77.63,77.63,77.63,1017,72,57,6.71,1627500169
geraldton,CA,49.7267,-86.9484,71.62,71.62,71.62,1013,64,90,11.5,1627500348
cockburn town,BS,24.0333,-74.5167,82.51,82.51,82.51,1017,72,9,11.65,1627500348
merritt island,US,28.5392,-80.672,80.02,77.0,90.1,1016,85,90,16.11,1627500190
port lavaca,US,28.615,-96.6261,92.19,87.98,95.31,1016,52,1,6.91,1627500350
catazaja,MX,17.725,-92.0167,90.45,90.45,90.45,1012,53,95,4.54,1627500351
orlik,RU,52.5178,99.825,56.75,56.75,56.75,1003,94,100,3.09,1627500353
cidreira,BR,-30.1811,-50.2056,49.12,49.12,49.12,1018,70,49,23.44,1627500354
itigi,TZ,-5.7,34.4833,65.21,65.21,65.21,1016,40,0,5.95,1627500355
tigil,RU,57.8,158.6667,50.07,50.07,50.07,1009,78,88,3.67,1627500356
sibolga,ID,1.7427,98.7792,76.1,76.1,76.1,1012,88,97,2.48,1627500356
tansen,NP,27.8673,83.5467,68.31,68.31,68.31,999,90,100,3.22,1627500356
osakarovka,KZ,50.565,72.5692,61.93,61.93,61.93,1009,41,100,6.96,1627500357
denpasar,ID,-8.65,115.2167,78.46,78.46,78.46,1012,94,20,4.61,1627500184
hinche,HT,19.15,-72.0167,87.22,87.22,87.22,1013,41,78,10.6,1627500360
zyryanka,RU,65.75,150.85,35.94,35.94,35.94,1018,98,100,14.54,1627500361
kruisfontein,ZA,-34.0033,24.7314,52.88,52.88,52.88,1020,79,100,3.56,1627500362
pozo colorado,PY,-23.4923,-58.7972,66.25,66.25,66.25,1027,15,5,11.72,1627500362
darhan,MN,49.4867,105.9228,63.64,63.64,63.64,1001,66,100,2.21,1627500124
saint-pierre,RE,-21.3393,55.4781,69.87,68.29,71.28,1020,62,90,12.66,1627500363
kudahuvadhoo,MV,2.6708,72.8944,81.52,81.52,81.52,1012,76,94,7.36,1627500074
walvis bay,NA,-22.9575,14.5053,65.35,59.09,65.35,1019,36,0,9.22,1627500082
pahalgam,IN,34.0333,75.3333,61.59,61.59,61.59,1007,94,100,0.54,1627500364
qeshm,IR,26.9581,56.2719,93.07,91.29,93.07,993,65,41,3.51,1627500365
talara,PE,-4.5772,-81.2719,79.56,79.56,79.56,1009,61,0,18.41,1627500366
taos,US,36.4072,-105.5731,79.56,76.44,83.55,1017,41,1,1.99,1627500242
la libertad,SV,13.4883,-89.3222,90.77,89.35,90.97,1011,74,98,3.36,1627500368
laguna,BR,-28.4825,-48.7808,62.01,62.01,62.01,1016,39,11,13.33,1627500368
baoning,CN,25.3378,110.026,78.66,78.66,78.66,999,83,0,4.47,1627500370
umm lajj,SA,25.0213,37.2685,89.89,89.89,89.89,1002,55,15,7.27,1627500372
borogontsy,RU,62.6683,131.1683,47.34,47.34,47.34,1011,63,0,6.13,1627500374
qui nhon,VN,13.7667,109.2333,85.24,85.24,85.24,1002,68,100,12.97,1627500375
brewster,US,41.3973,-73.6171,78.6,75.15,82.65,1016,58,20,1.01,1627500375
wa,GH,10.0607,-2.5019,72.32,72.32,72.32,1012,87,86,3.56,1627500377
dzilam gonzalez,MX,21.2833,-88.9333,83.97,83.97,83.97,1013,72,92,7.27,1627500378
willmar,US,45.1219,-95.0433,90.73,87.49,94.59,1012,58,1,11.5,1627500378
puerto quijarro,BO,-17.7833,-57.7667,67.44,67.44,67.44,1023,15,93,9.37,1627500379
san juan,AR,-31.5375,-68.5364,53.42,53.42,53.42,1029,28,0,4.32,1627500088
dubai,AE,25.2582,55.3047,99.18,95.25,100.33,993,41,92,4.61,1627500235
belur,IN,13.1667,75.8667,66.2,66.2,66.2,1012,90,100,10.51,1627500381
boyolangu,ID,-8.1181,111.8935,72.46,72.46,72.46,1012,89,77,1.7,1627500381
sambava,MG,-14.2667,50.1667,66.87,66.87,66.87,1020,81,1,11.32,1627500314
yar-sale,RU,66.8333,70.8333,44.76,44.76,44.76,1003,88,14,4.5,1627500383
huron,US,41.1501,-82.5499,83.57,79.36,85.8,1016,60,57,8.59,1627500385
ouro preto do oeste,BR,-10.7481,-62.2158,90.81,90.81,90.81,1013,31,3,6.38,1627500385
karasburg,NA,-28.0167,18.75,50.81,50.81,50.81,1022,48,0,8.41,1627500387
hammonton,US,39.6365,-74.8024,84.67,76.69,90.0,1014,51,1,3.4,1627500388
caravelas,BR,-17.7125,-39.2481,78.06,78.06,78.06,1012,72,5,9.84,1627500389
venado tuerto,AR,-33.7456,-61.9688,50.7,49.77,54.9,1030,34,6,13.76,1627500390
port moresby,PG,-9.4431,147.1797,75.65,75.65,75.65,1009,93,100,2.06,1627500390
belyy yar,RU,53.6039,91.3903,55.29,55.29,55.29,1010,94,0,0.0,1627500391
mezen,RU,65.8522,44.24,47.52,47.52,47.52,1008,90,98,4.76,1627500391
teguise,ES,29.0605,-13.564,71.82,71.82,71.82,1013,69,20,18.41,1627500392
kahului,US,20.8947,-156.47,80.49,77.68,82.42,1018,80,40,16.11,1627500393
shingu,JP,33.7333,135.9833,80.91,80.91,80.91,1003,92,3,5.28,1627500135
gazli,UZ,40.1333,63.45,87.03,87.03,87.03,1004,15,0,12.91,1627500394
gusau,NG,12.1628,6.6614,76.66,76.66,76.66,1012,79,100,4.79,1627500396
lakhimpur,IN,27.95,80.7667,82.9,82.9,82.9,996,81,79,3.27,1627500396
muros,ES,42.7762,-9.0603,69.21,64.85,70.68,1017,60,0,13.85,1627500238
gao,ML,16.6362,1.637,92.82,92.82,92.82,1009,39,95,10.42,1627500398
cananeia,BR,-25.0147,-47.9267,60.53,60.53,60.53,1017,63,56,5.59,1627500399
grindavik,IS,63.8424,-22.4338,59.29,54.55,64.35,1011,77,0,16.11,1627500362
saskylakh,RU,71.9167,114.0833,57.45,57.45,57.45,1013,55,96,8.7,1627500400
nishihara,JP,26.1842,127.7558,79.3,78.46,79.88,1000,91,75,4.61,1627500368
sinegorye,RU,62.0788,150.477,40.06,40.06,40.06,1016,90,100,5.37,1627500400
ovalle,CL,-30.5983,-71.2003,72.46,72.46,72.46,1016,15,0,4.12,1627500401
shchigry,RU,51.8755,36.9043,66.02,65.39,66.02,1013,80,100,3.58,1627500403
russell,NZ,-35.2613,174.1236,45.23,45.23,45.23,1020,95,15,3.67,1627500404
trelew,AR,-43.249,-65.3051,56.25,56.25,56.25,1023,29,17,13.49,1627500158
gravdal,NO,68.1214,13.5031,53.49,53.49,53.49,1008,94,20,17.27,1627500406
kiskunfelegyhaza,HU,46.7121,19.8446,84.18,82.94,87.94,1010,53,4,6.58,1627500406
oruro,BO,-17.9833,-67.15,55.72,55.72,55.72,1010,22,11,16.64,1627500141
lokoja,NG,7.8024,6.743,75.45,75.45,75.45,1012,87,100,3.04,1627500409
souillac,MU,-20.5167,57.5167,70.18,69.37,70.18,1023,83,75,21.85,1627500410
ponta delgada,PT,37.7333,-25.6667,72.32,72.32,72.32,1025,83,20,16.11,1627500411
goya,AR,-29.14,-59.2626,54.75,54.75,54.75,1029,26,0,12.35,1627500412
bandiagara,ML,14.3501,-3.6104,88.75,88.75,88.75,1008,50,100,15.86,1627500414
yushu,CN,44.8,126.5333,72.5,72.5,72.5,1003,88,100,3.33,1627500304
vao,NC,-22.6667,167.4833,69.28,69.28,69.28,1018,66,97,15.99,1627500415
bengkulu,ID,-3.8004,102.2655,75.09,75.09,75.09,1011,85,48,3.91,1627500420
coelho neto,BR,-4.2567,-43.0128,88.2,88.2,88.2,1009,46,83,3.85,1627500420
mayo,CA,63.5927,-135.8998,62.6,62.6,62.6,1016,63,90,9.22,1627500421
alice springs,AU,-23.7,133.8833,54.95,54.95,54.95,1015,71,0,8.05,1627500158
rafraf,TN,37.1904,10.1837,88.12,86.31,88.12,1013,51,0,20.04,1627500422
grand gaube,MU,-20.0064,57.6608,69.39,69.39,70.2,1022,75,100,13.0,1627500422
whitecourt,CA,54.1502,-115.6855,74.44,74.44,74.44,1021,53,20,2.3,1627500425
veisiejai,LT,54.1,23.7,70.7,70.7,70.7,1009,66,82,4.85,1627500426
beringovskiy,RU,63.05,179.3167,47.03,47.03,47.03,997,76,99,12.03,1627500426
biryukove,UA,47.9563,39.7384,75.51,75.51,75.51,1016,55,69,8.12,1627500427
teya,RU,60.3778,92.6267,55.4,55.4,55.4,1009,83,100,2.51,1627500428
pinega,RU,64.7001,43.3936,49.23,49.23,49.23,1008,94,8,5.23,1627500429
rosarito,MX,32.3333,-117.0333,79.83,67.91,94.08,1016,65,8,13.85,1627500430
kutum,SD,14.2,24.6667,78.26,78.26,78.26,1011,58,78,3.49,1627500431
lunenburg,CA,44.3835,-64.3155,70.32,62.6,74.48,1011,71,93,9.22,1627500431
dingle,IE,52.1408,-10.2689,58.82,58.82,58.82,1010,70,8,18.75,1627500432
wamba,CD,2.1484,27.9947,65.75,65.75,65.75,1015,96,90,1.92,1627500433
zhigansk,RU,66.7697,123.3711,52.99,52.99,52.99,1014,60,7,4.68,1627500433
oranjemund,NA,-28.55,16.4333,54.54,54.54,54.54,1025,91,0,9.4,1627500434
omboue,GA,-1.5746,9.2618,74.97,74.97,74.97,1014,80,42,7.09,1627500435
valdivia,CL,-39.8142,-73.2459,53.69,53.69,53.69,1025,62,0,4.94,1627500436
mount isa,AU,-20.7333,139.5,55.17,55.17,55.17,1015,62,6,5.75,1627500437
corner brook,CA,48.9667,-57.9484,66.2,64.09,66.36,1009,97,100,2.19,1627500438
opuwo,NA,-18.0607,13.84,62.87,62.87,62.87,1018,24,2,7.25,1627500188
jimenez,MX,28.3333,-105.4,90.34,90.34,90.34,1014,15,90,9.08,1627500439
yarega,RU,63.4354,53.5765,45.73,45.73,45.73,1006,99,100,1.34,1627500440
mabaruma,GY,8.2,-59.7833,85.77,85.77,85.77,1011,66,38,4.47,1627500440
le port,RE,-20.9373,55.2919,69.73,68.61,71.6,1023,79,100,15.14,1627500441
harrison,PH,13.45,120.4333,78.08,78.08,78.08,1006,86,100,13.62,1627500197
arrecife,ES,28.963,-13.5477,75.18,73.47,75.18,1013,69,20,18.41,1627500443
naze,JP,28.3667,129.4833,77.67,77.67,77.67,1000,89,37,8.3,1627500259
yaring,TH,6.8662,101.3689,79.48,79.48,79.48,1008,81,100,8.48,1627500445
kanigoro,ID,-8.13,112.219,68.74,68.74,68.74,1012,94,35,2.35,1627500448
gravesend,GB,51.4414,0.3737,61.39,57.94,64.31,1007,75,12,15.99,1627500165
puerto del rosario,ES,28.5004,-13.8627,73.15,73.15,74.88,1013,78,40,13.8,1627500449
phanom thuan,TH,14.1303,99.6986,83.17,83.17,83.88,1005,74,100,7.09,1627500450
ferrol,ES,43.4832,-8.2369,66.58,64.56,69.35,1018,84,0,11.41,1627500451
cibitoke,BI,-2.8833,29.25,64.08,64.08,64.08,1016,57,52,2.91,1627500451
abonnema,NG,4.7084,6.7931,78.12,78.12,78.12,1013,74,100,10.2,1627500453
luganville,VU,-15.5333,167.1667,76.64,76.64,76.64,1013,86,98,12.01,1627500454
dicabisagan,PH,17.0818,122.4157,80.6,80.6,80.6,1002,83,100,3.87,1627500455
dharchula,IN,29.85,80.5333,73.8,73.8,73.8,1003,93,100,1.45,1627500455
atlantic city,US,39.3643,-74.4229,78.98,75.0,87.39,1016,64,20,12.66,1627500354
ratnagiri,IN,16.9833,73.3,79.99,79.99,79.99,1008,84,100,16.51,1627500457
chuchkovo,RU,54.2693,41.4465,62.56,62.56,62.56,1013,90,100,8.37,1627500458
samarai,PG,-10.6167,150.6667,78.89,78.89,78.89,1010,85,100,5.73,1627500192
pareora,NZ,-44.4871,171.2132,39.18,39.18,39.18,1015,94,0,3.89,1627500460
sabinas,MX,27.85,-101.1167,95.23,95.23,95.23,1014,33,0,9.19,1627500461
conceicao da barra,BR,-18.5933,-39.7322,78.48,78.48,78.48,1011,71,0,11.1,1627500462
bogorodskoye,RU,56.55,37.8833,63.79,63.79,63.79,1010,93,100,7.72,1627500463
sembakung,ID,3.8167,117.25,75.13,75.13,75.13,1008,99,83,2.35,1627500463
bonavista,CA,48.6499,-53.1147,78.8,78.8,78.8,1011,80,98,15.37,1627500465
koslan,RU,63.4564,48.8989,50.76,50.76,50.76,1007,96,100,4.76,1627500466
sevierville,US,35.8681,-83.5618,92.64,89.91,96.33,1017,41,1,0.0,1627500466
evensk,RU,61.95,159.2333,49.24,49.24,49.24,1009,65,11,6.33,1627500468
talcahuano,CL,-36.7167,-73.1167,67.68,67.68,67.68,1019,28,0,13.8,1627500468
whitehorse,CA,60.7161,-135.0538,59.56,59.02,62.1,1019,54,75,5.99,1627500469
develi,TR,38.3906,35.4922,63.75,63.75,63.75,1016,54,0,12.06,1627500470
buncrana,IE,55.1333,-7.45,58.77,57.02,58.77,1003,87,71,15.57,1627500470
west bay,KY,19.3667,-81.4167,88.32,88.0,89.67,1013,75,40,4.0,1627500471
coos bay,US,43.3665,-124.2179,65.05,60.93,91.85,1019,80,1,6.91,1627500474
tabas,IR,33.5959,56.9244,88.59,88.59,88.59,1002,15,0,16.82,1627500475
iquitos,PE,-3.7481,-73.2472,91.44,91.44,91.44,1011,52,75,2.3,1627500293
warmbad,NA,-28.45,18.7333,53.08,53.08,53.08,1022,54,0,8.81,1627500478
cueramaro,MX,20.6167,-101.7167,74.62,74.62,81.54,1014,37,24,4.92,1627500478
tocopilla,CL,-22.092,-70.1979,67.53,67.53,67.53,1015,52,31,8.39,1627500479
port hawkesbury,CA,45.6169,-61.3485,64.02,61.18,67.59,1011,92,90,1.01,1627500479
ancud,CL,-41.8697,-73.8203,47.73,47.73,47.73,1028,72,5,2.59,1627500480
buala,SB,-8.145,159.5921,78.4,78.4,78.4,1011,82,100,3.22,1627500207
hokitika,NZ,-42.7167,170.9667,45.77,45.77,45.77,1016,90,31,5.88,1627500481
saint-augustin,CA,51.226,-58.6502,67.5,67.5,67.5,1007,67,28,14.76,1627500482
carutapera,BR,-1.195,-46.02,82.76,82.76,82.76,1011,74,18,8.55,1627500482
tongliao,CN,43.6125,122.2653,73.65,73.65,73.65,1003,79,100,5.57,1627500227
flagstaff,US,35.1981,-111.6513,75.25,65.35,81.57,1030,49,75,3.44,1627500484
newport beach,US,33.6189,-117.9289,81.72,67.95,102.92,1016,61,20,7.0,1627500385
alugan,PH,12.2188,125.4808,79.99,79.99,79.99,1006,83,100,7.02,1627500486
abu dhabi,AE,24.4667,54.3667,96.82,96.82,100.51,993,56,63,2.3,1627500412
awjilah,LY,29.1081,21.2869,90.88,90.88,90.88,1011,20,0,10.13,1627500487
los zacatones,MX,22.95,-102.05,73.65,72.95,73.65,1015,38,100,7.99,1627500487
manokwari,ID,-0.8667,134.0833,79.77,79.77,79.77,1009,76,87,2.68,1627500488
adolfo lopez mateos,MX,28.4667,-107.3,80.92,80.92,80.92,1017,26,95,11.18,1627500492
porto walter,BR,-8.2686,-72.7439,84.16,84.16,84.16,1011,62,100,1.5,1627500493
bagdarin,RU,54.4333,113.6,56.25,56.25,56.25,1004,95,100,3.4,1627500494
bati,ET,11.1833,40.0167,74.93,74.93,74.93,1010,57,100,3.06,1627500495
saint-joseph,RE,-21.3667,55.6167,68.77,67.21,70.18,1024,85,100,18.57,1627500496
mapiri,BO,-15.25,-68.1667,58.55,58.55,58.55,1020,96,100,2.24,1627500498
boende,CD,-0.2167,20.8667,80.82,80.82,80.82,1010,35,84,2.71,1627500370
markova,RU,52.2132,104.2054,57.52,57.52,57.52,1001,100,40,2.24,1627500499
moussoro,TD,13.6408,16.4901,78.44,78.44,78.44,1012,77,100,4.88,1627500500
bandarbeyla,SO,9.4942,50.8122,77.95,77.95,77.95,1010,78,87,27.38,1627500501
rudnogorsk,RU,57.2639,103.7519,63.43,63.43,63.43,1001,57,3,2.66,1627500502
dafeng,CN,23.4517,108.5881,79.9,79.9,79.9,999,90,74,2.35,1627500502
vardo,NO,70.3705,31.1107,46.38,46.38,47.95,1011,93,75,4.61,1627500502
sioux lookout,CA,50.1001,-91.917,80.67,80.67,82.78,1010,69,90,2.3,1627500265
la romana,DO,18.4273,-68.9728,91.76,87.53,91.76,1014,55,40,17.27,1627500346
kirksville,US,40.1948,-92.5833,91.36,89.55,94.05,1019,62,1,0.0,1627500504
mpika,ZM,-11.8343,31.4529,54.52,54.52,54.52,1020,51,100,4.27,1627500504
bardiyah,LY,31.7561,25.0865,81.34,81.34,81.34,1011,62,0,8.86,1627500504
